,City,Latitude,Longitude,Max Temperature,Humidity,Cloudiness,Wind Speed,Country,Date
0,tuktoyaktuk,69.4541,-133.0374,39.2,93,40,10.36,CA,1662703151
1,manokwari,-0.8667,134.0833,82.29,73,100,5.12,ID,1662703365
2,mataura,-46.1927,168.8643,45.91,89,32,2.51,NZ,1662703365
3,butaritari,3.0707,172.7902,81.7,76,91,15.35,KI,1662703366
4,yeppoon,-23.1333,150.7333,73.18,80,92,9.19,AU,1662703366
5,georgetown,5.4112,100.3354,87.73,70,20,6.91,MY,1662703366
6,ushuaia,-54.8,-68.3,35.51,98,100,7.07,AR,1662703367
7,fortuna,40.5982,-124.1573,51.98,99,0,1.21,US,1662703212
8,mwingi,-0.9344,38.0601,70.03,56,85,8.88,KE,1662703367
9,toora-khem,52.4675,96.11,47.41,86,100,3.76,RU,1662703368
10,ust-kut,56.7938,105.7672,54.07,54,94,10.69,RU,1662703368
11,ponsacco,43.6238,10.6291,68.56,93,24,1.99,IT,1662703368
12,praia da vitoria,38.7333,-27.0667,75.76,96,83,18.05,PT,1662703369
13,mar del plata,-38.0023,-57.5575,46.72,72,100,13.0,AR,1662703211
14,sarangarh,21.6,83.0833,88.34,63,56,12.08,IN,1662703369
15,yulara,-25.2406,130.9889,72.73,21,70,3.15,AU,1662703370
16,bengkulu,-3.8004,102.2655,83.82,67,83,6.2,ID,1662703370
17,hofn,64.2539,-15.2082,52.3,92,100,6.98,IS,1662703371
18,cap malheureux,-19.9842,57.6142,71.58,72,58,20.83,MU,1662703298
19,lebu,-37.6167,-73.65,42.62,84,10,7.78,CL,1662703158
20,rikitea,-23.1203,-134.9692,72.27,73,2,19.66,PF,1662703372
21,qaanaaq,77.484,-69.3632,28.58,76,35,7.52,GL,1662703372
22,tuatapere,-46.1333,167.6833,45.7,80,42,2.98,NZ,1662703372
23,portland,45.5234,-122.6762,64.96,48,0,5.01,US,1662703267
24,bredasdorp,-34.5322,20.0403,51.35,86,33,2.46,ZA,1662703374
25,hobart,-42.8794,147.3294,65.43,69,100,10.36,AU,1662703353
26,dingle,10.9995,122.6711,84.61,74,87,7.78,PH,1662703300
27,cape town,-33.9258,18.4232,56.97,82,34,4.0,ZA,1662703375
28,bethel,41.3712,-73.414,57.18,85,0,0.0,US,1662703355
29,maumere,-8.6199,122.2111,83.52,64,8,1.23,ID,1662703375
30,wufeng,27.45,104.8333,60.94,88,100,4.21,CN,1662703376
31,inhambane,-23.865,35.3833,71.17,66,2,3.87,MZ,1662703376
32,bagepalli,13.7847,77.7931,75.81,77,100,10.69,IN,1662703134
33,ihosy,-22.4,46.1167,64.58,56,36,10.22,MG,1662703377
34,albany,42.6001,-73.9662,56.7,93,0,2.26,US,1662703194
35,hasaki,35.7333,140.8333,82.8,80,98,15.32,JP,1662703378
36,hermanus,-34.4187,19.2345,50.81,78,28,5.91,ZA,1662703168
37,gat,31.61,34.7642,81.37,100,0,8.59,IL,1662703378
38,carnarvon,-24.8667,113.6333,65.1,62,98,6.24,AU,1662703308
39,port elizabeth,-33.918,25.5701,60.1,76,92,3.91,ZA,1662703379
40,avarua,-21.2078,-159.775,73.45,83,20,9.22,CK,1662703379
41,kununurra,-15.7667,128.7333,98.58,26,0,5.75,AU,1662703380
42,ukiah,39.1502,-123.2078,75.52,36,0,0.0,US,1662703380
43,ardabil,38.2498,48.2933,61.27,71,81,5.01,IR,1662703381
44,tubuala,9.5167,-79.0333,77.67,88,99,9.13,PA,1662703381
45,muros,42.7762,-9.0603,59.2,92,52,4.59,ES,1662703381
46,busselton,-33.65,115.3333,62.51,65,22,5.84,AU,1662703192
47,dikson,73.5069,80.5464,38.14,76,100,10.98,RU,1662703382
48,jamestown,42.097,-79.2353,58.5,74,0,1.01,US,1662703311
49,moron,-34.6534,-58.6198,47.93,92,100,11.07,AR,1662703383
50,provideniya,64.3833,-173.3,49.01,71,48,3.89,RU,1662703383
51,punta arenas,-53.15,-70.9167,46.11,65,100,19.51,CL,1662703249
52,bushehr,28.9684,50.8385,91.31,67,0,8.16,IR,1662703384
53,teguldet,57.3064,88.1667,55.6,55,66,10.63,RU,1662703384
54,san patricio,28.017,-97.5169,77.43,77,15,6.64,US,1662703317
55,camacupa,-12.0167,17.4833,63.1,28,0,5.19,AO,1662703385
56,mudhol,16.35,75.2833,81.7,69,99,8.7,IN,1662703386
57,new norfolk,-42.7826,147.0587,63.37,61,100,1.01,AU,1662703386
58,alyangula,-13.8483,136.4192,81.77,64,23,1.14,AU,1662703387
59,victoria,22.2855,114.1577,89.74,48,65,11.01,HK,1662703275
60,nyurba,63.2842,118.3319,48.72,76,86,14.99,RU,1662703367
61,coquimbo,-29.9533,-71.3436,50.9,79,0,3.94,CL,1662703387
62,loreto,22.2667,-101.9667,64.6,61,100,4.05,MX,1662703388
63,vila franca do campo,37.7167,-25.4333,75.61,93,93,13.27,PT,1662703336
64,zhigansk,66.7697,123.3711,41.4,97,100,19.77,RU,1662703388
65,kodinar,20.7903,70.7031,90.43,65,54,6.55,IN,1662703389
66,lata,40.1629,-8.3327,66.38,98,79,1.03,PT,1662703389
67,ballina,-28.8667,153.5667,72.79,79,62,6.49,AU,1662703389
68,puerto ayora,-0.7393,-90.3518,66.54,95,97,8.01,EC,1662703390
69,camopi,3.1655,-52.3158,69.82,99,24,1.97,GF,1662703390
70,kodiak,57.79,-152.4072,53.11,58,0,9.22,US,1662703391
71,matara,5.9485,80.5353,84.74,66,100,13.65,LK,1662703391
72,namibe,-15.1961,12.1522,65.8,90,3,3.11,AO,1662703391
73,touros,-5.1989,-35.4608,74.08,74,1,13.89,BR,1662703392
74,yellowknife,62.456,-114.3525,45.12,70,75,16.11,CA,1662703177
75,mahebourg,-20.4081,57.7,75.49,57,75,13.8,MU,1662703392
76,hilo,19.7297,-155.09,75.92,88,2,3.0,US,1662703208
77,souillac,-20.5167,57.5167,75.58,57,75,13.8,MU,1662703289
78,walvis bay,-22.9575,14.5053,58.3,71,0,1.36,NA,1662703393
79,geraldton,-28.7667,114.6,68.41,56,70,17.27,AU,1662703393
80,camacha,33.0833,-16.3333,71.02,88,40,8.05,PT,1662703394
81,calvinia,-31.4707,19.776,59.38,36,0,1.66,ZA,1662703394
82,te anau,-45.4167,167.7167,44.58,89,10,1.7,NZ,1662703394
83,coahuayana,18.7333,-103.6833,79.36,90,99,2.62,MX,1662703395
84,vaini,-21.2,-175.2,75.36,94,20,5.75,TO,1662703395
85,fasa,28.9383,53.6482,89.22,12,0,1.07,IR,1662703396
86,salalah,17.0151,54.0924,80.01,72,87,6.22,OM,1662703263
87,tarata,-17.6167,-66.0167,51.78,72,11,4.99,BO,1662703397
88,jacareacanga,-6.2222,-57.7528,74.3,79,75,2.19,BR,1662703397
89,esperance,-33.8667,121.9,60.39,62,70,9.95,AU,1662703203
90,dakar,14.6937,-17.4441,77.25,83,100,3.53,SN,1662703398
91,port alfred,-33.5906,26.891,61.18,95,52,8.55,ZA,1662703167
92,newnan,33.3807,-84.7997,70.5,96,40,4.61,US,1662703120
93,kahului,20.8947,-156.47,79.34,86,12,4.0,US,1662703194
94,bosaso,11.2842,49.1816,93.33,38,62,14.14,SO,1662703398
95,bayog,7.8667,123.0667,83.21,84,96,2.98,PH,1662703399
96,thompson,55.7435,-97.8558,48.36,81,40,12.66,CA,1662703369
97,atuona,-9.8,-139.0333,76.68,75,7,22.57,PF,1662703399
98,douglas,41.3,-96.167,71.69,69,0,12.66,US,1662703378
99,cairns,-16.9167,145.7667,82.71,67,5,8.05,AU,1662703227
100,kruisfontein,-34.0033,24.7314,57.88,70,45,3.49,ZA,1662703400
101,marsh harbour,26.5412,-77.0636,83.71,70,0,7.23,BS,1662703400
102,sikonge,-5.6333,32.7667,71.65,45,85,9.57,TZ,1662703401
103,barrow,71.2906,-156.7887,33.82,100,100,16.11,US,1662703402
104,qaqortoq,60.7167,-46.0333,43.61,78,57,4.63,GL,1662703402
105,kapaa,22.0752,-159.319,75.34,82,75,12.66,US,1662703402
106,jagdalpur,19.0667,82.0333,84.09,69,67,10.36,IN,1662703403
107,cabo san lucas,22.8909,-109.9124,78.33,92,94,1.99,MX,1662703107
108,north bend,43.4065,-124.2243,52.52,100,1,9.35,US,1662703214
109,puerto leguizamo,-0.1934,-74.7819,71.35,82,79,1.57,CO,1662703404
110,bluff,-46.6,168.3333,46.35,71,10,5.53,NZ,1662703245
111,anadyr,64.75,177.4833,46.0,70,20,11.18,RU,1662703404
112,dwarka,22.2394,68.9678,88.09,69,41,16.6,IN,1662703405
113,eenhana,-17.4667,16.3333,67.86,21,0,8.03,NA,1662703405
114,hun,29.1268,15.9477,72.43,68,0,5.66,LY,1662703406
115,leningradskiy,69.3833,178.4167,45.16,62,1,7.45,RU,1662703228
116,brae,60.3964,-1.353,55.17,87,99,9.84,GB,1662703406
117,rafaela,-31.2503,-61.4867,47.98,55,54,8.01,AR,1662703407
118,avera,33.194,-82.5271,71.11,94,92,7.2,US,1662703407
119,govindgarh,27.5,76.9833,96.69,37,0,5.95,IN,1662703408
120,vardo,70.3705,31.1107,49.98,81,0,10.36,NO,1662703408
121,leshukonskoye,64.8989,45.7622,44.76,94,100,9.19,RU,1662703409
122,llanes,43.4198,-4.7549,65.25,80,85,6.29,ES,1662703409
123,rovaniemi,66.5,25.7167,45.81,93,75,6.91,FI,1662703300
124,vila do maio,15.1333,-23.2167,78.87,82,100,11.05,CV,1662703410
125,belmonte,-15.8631,-38.8828,69.76,79,39,6.62,BR,1662703410
126,acapulco,16.8634,-99.8901,78.15,89,97,6.35,MX,1662703223
127,upernavik,72.7868,-56.1549,37.96,89,100,11.3,GL,1662703411
128,ambon,-3.6954,128.1814,84.34,74,40,5.75,ID,1662703411
129,bima,-8.4667,118.7167,90.1,53,17,5.08,ID,1662703411
130,faanui,-16.4833,-151.75,78.44,75,9,22.79,PF,1662703412
131,sur,22.5667,59.5289,87.48,48,16,5.77,OM,1662703412
132,berlevag,70.8578,29.0864,48.15,81,75,8.05,NO,1662703413
133,hambantota,6.1241,81.1185,88.14,66,20,14.97,LK,1662703413
134,saint-philippe,-21.3585,55.7679,74.79,72,68,12.33,RE,1662703171
135,kungurtug,50.5994,97.5228,79.5,20,51,14.43,RU,1662703414
136,oranjemund,-28.55,16.4333,54.32,90,11,5.93,NA,1662703414
137,lavrentiya,65.5833,-171.0,45.75,78,28,3.47,RU,1662703415
138,tolaga bay,-38.3667,178.3,52.74,86,96,6.46,NZ,1662703415
139,kasongo,-4.45,26.6667,78.33,42,11,4.81,CD,1662703416
140,port hedland,-20.3167,118.5667,78.85,53,59,14.97,AU,1662703416
141,ust-nera,64.5667,143.2,44.46,94,100,7.72,RU,1662703416
142,puerto narino,-3.7703,-70.3831,71.98,97,79,3.29,CO,1662703417
143,masvingo,-20.0637,30.8277,65.35,53,0,3.8,ZW,1662703418
144,clyde river,70.4692,-68.5914,35.67,95,100,3.76,CA,1662703419
145,ugoofaaru,5.6667,73.0,80.92,81,86,14.85,MV,1662703419
146,brest,52.1,23.7,51.31,74,100,13.35,BY,1662703419
147,castro,-24.7911,-50.0119,61.83,66,9,5.37,BR,1662703289
148,bridlington,54.0831,-0.1919,57.29,87,83,10.04,GB,1662703420
149,longyearbyen,78.2186,15.6401,40.84,93,75,2.3,SJ,1662703316
150,kavieng,-2.5744,150.7967,84.22,70,63,11.1,PG,1662703420
151,buraydah,26.326,43.975,96.04,10,0,5.17,SA,1662703421
152,thinadhoo,0.5333,72.9333,81.79,75,85,12.3,MV,1662703421
153,padang,-0.9492,100.3543,86.05,61,99,5.19,ID,1662703421
154,mayo,38.8876,-76.5119,63.66,94,0,3.85,US,1662703422
155,port moresby,-9.4431,147.1797,82.87,76,78,9.44,PG,1662703422
156,saint george,37.1041,-113.5841,87.53,26,0,6.91,US,1662703215
157,preobrazheniye,42.9019,133.9064,74.46,58,2,2.93,RU,1662703423
158,wagga wagga,-35.1167,147.3667,56.61,88,68,13.15,AU,1662703423
159,teahupoo,-17.8333,-149.2667,71.56,78,19,22.86,PF,1662703423
160,otradnoye,59.7775,30.8181,50.97,69,29,3.24,RU,1662703424
161,lorengau,-2.0226,147.2712,84.47,69,52,9.98,PG,1662703424
162,hastings,50.8552,0.5729,58.46,99,94,17.92,GB,1662703312
163,isabela,6.7085,121.9711,83.05,79,55,2.35,PH,1662703348
164,alta floresta,-9.8756,-56.0861,74.17,62,40,2.51,BR,1662703425
165,east london,-33.0153,27.9116,65.17,83,49,7.72,ZA,1662703233
166,nikolskoye,59.7035,30.7861,48.09,68,27,3.04,RU,1662703426
167,pimentel,-6.8367,-79.9342,60.93,89,28,12.66,PE,1662703426
168,ust-koksa,50.2696,85.6108,59.27,68,93,0.38,RU,1662703426
169,talnakh,69.4865,88.3972,38.21,69,91,7.02,RU,1662703427
170,sept-iles,50.2001,-66.3821,57.06,98,98,2.19,CA,1662703217
171,tsiroanomandidy,-18.7667,46.0333,71.89,44,0,3.76,MG,1662703427
172,adrar,20.5022,-10.0711,89.02,30,29,5.7,MR,1662703428
173,martapura,-3.4167,114.85,78.89,83,40,6.91,ID,1662703428
174,isangel,-19.55,169.2667,77.85,81,100,7.09,VU,1662703428
175,vao,-22.6667,167.4833,70.45,85,100,16.78,NC,1662703200
176,allende,25.2833,-100.0167,74.84,69,58,6.11,MX,1662703429
177,tasiilaq,65.6145,-37.6368,39.36,79,28,5.73,GL,1662703429
178,grindavik,63.8424,-22.4338,50.47,100,100,12.66,IS,1662703430
179,lerwick,60.1545,-1.1494,53.6,89,97,10.89,GB,1662703411
180,mitsamiouli,-11.3847,43.2844,76.59,69,22,5.73,KM,1662703430
181,sao joao da barra,-21.6403,-41.0511,67.39,87,11,14.94,BR,1662703431
182,bitkine,11.9801,18.2138,75.4,86,99,7.63,TD,1662703431
183,saryozek,44.3583,77.9753,81.64,20,13,5.95,KZ,1662703432
184,severo-kurilsk,50.6789,156.125,59.65,73,100,8.84,RU,1662703272
185,santa vitoria,-18.8386,-50.1214,74.93,38,0,6.91,BR,1662703432
186,san cristobal,7.7669,-72.225,64.78,96,87,1.7,VE,1662703432
187,sangar,63.9242,127.4739,43.34,97,100,8.77,RU,1662703433
188,hualmay,-11.0964,-77.6139,59.13,83,53,10.33,PE,1662703433
189,chokurdakh,70.6333,147.9167,43.75,70,100,7.43,RU,1662703434
190,puerto baquerizo moreno,-0.9,-89.6,67.44,83,90,14.9,EC,1662703434
191,monze,-16.2833,27.4833,67.77,44,0,10.18,ZM,1662703434
192,petropavlovsk-kamchatskiy,53.0452,158.6483,68.59,52,20,4.47,RU,1662703255
193,angoche,-16.2325,39.9086,75.99,65,5,4.09,MZ,1662703435
194,guerrero negro,27.9769,-114.0611,74.77,89,100,30.02,MX,1662703435
195,ancud,-41.8697,-73.8203,46.22,85,90,1.63,CL,1662703436
196,katsuura,35.1333,140.3,79.54,78,99,16.37,JP,1662703436
197,kaitangata,-46.2817,169.8464,45.54,82,6,3.22,NZ,1662703436
198,sanica,44.6142,16.6411,66.7,95,92,0.85,BA,1662703437
199,byron bay,-28.65,153.6167,72.72,78,61,9.6,AU,1662702766
200,saldanha,-33.0117,17.9442,55.35,85,7,7.47,ZA,1662703369
201,nantucket,41.2835,-70.0995,65.8,72,20,10.36,US,1662703103
202,nanortalik,60.1432,-45.2371,42.89,88,37,6.24,GL,1662703438
203,banda aceh,5.5577,95.3222,86.0,62,85,11.23,ID,1662703439
204,panzhihua,26.5851,101.7128,78.13,63,100,4.32,CN,1662703237
205,nola,40.922,14.5329,78.76,74,98,3.42,IT,1662703439
206,hokitika,-42.7167,170.9667,50.16,76,8,7.74,NZ,1662703439
207,iquique,-20.2208,-70.1431,57.24,77,41,3.49,CL,1662703440
208,kudeyevskiy,54.8758,56.7567,46.15,91,100,6.13,RU,1662703440
209,luderitz,-26.6481,15.1594,60.26,56,0,11.74,NA,1662703440
210,huarmey,-10.0681,-78.1522,60.06,84,48,10.22,PE,1662703441
211,evensk,61.95,159.2333,49.01,96,100,18.1,RU,1662703441
212,ossora,59.2353,163.0719,58.98,72,56,3.49,RU,1662703442
213,kolpashevo,58.3131,82.9089,52.3,78,98,10.16,RU,1662703442
214,nara,34.6851,135.8049,75.7,80,98,3.62,JP,1662703442
215,santa luzia,-19.7697,-43.8514,63.5,84,1,4.07,BR,1662703443
216,havre-saint-pierre,50.2334,-63.5986,57.56,100,100,3.44,CA,1662703443
217,sitka,57.0531,-135.33,57.09,82,100,6.91,US,1662703443
218,ewa beach,21.3156,-158.0072,78.67,68,12,8.01,US,1662703265
219,kaeo,-35.1,173.7833,59.32,72,44,4.79,NZ,1662703444
220,glendive,47.1053,-104.7125,58.55,45,20,11.5,US,1662703444
221,omsukchan,62.5333,155.8,43.99,97,100,4.05,RU,1662703445
222,baykit,61.67,96.37,44.85,62,98,12.55,RU,1662703445
223,naryan-mar,67.6713,53.087,45.72,86,100,9.66,RU,1662703446
224,burnie,-41.0667,145.9167,57.4,76,95,3.94,AU,1662703446
225,airai,-8.9266,125.4092,78.82,30,15,3.36,TL,1662703447
226,torbay,47.6666,-52.7314,49.78,85,25,3.0,CA,1662703398
227,vernashen,39.7924,45.3639,68.16,41,0,3.96,AM,1662703447
228,synya,65.3718,58.0387,39.56,90,100,8.63,RU,1662703448
229,sabzevar,36.2126,57.6819,86.38,17,0,7.74,IR,1662703448
230,arraial do cabo,-22.9661,-42.0278,68.47,88,9,25.46,BR,1662703448
231,vostok,46.4856,135.8833,61.2,40,0,8.46,RU,1662703376
232,rocha,-34.4833,-54.3333,59.16,98,100,7.96,UY,1662703166
233,naze,28.3667,129.4833,80.33,75,50,5.14,JP,1662703449
234,jambi,-1.6,103.6167,89.08,54,91,5.06,ID,1662703450
235,hongjiang,27.11,109.9956,96.4,29,97,5.46,CN,1662703450
236,imperia,43.9667,7.7833,65.08,72,13,4.72,IT,1662703450
237,killybegs,54.6333,-8.45,58.78,92,99,6.71,IE,1662703451
238,zhangjiakou,40.81,114.8794,84.07,27,94,7.76,CN,1662703451
239,hithadhoo,-0.6,73.0833,82.0,68,68,12.03,MV,1662703452
240,hamilton,39.1834,-84.5333,61.39,94,0,0.0,US,1662703452
241,vila velha,-20.3297,-40.2925,68.95,84,0,4.0,BR,1662703247
242,san quintin,30.4833,-115.95,80.85,67,100,19.53,MX,1662703453
243,port hardy,50.6996,-127.4199,53.06,93,5,8.63,CA,1662703218
244,raudeberg,61.9875,5.1352,54.86,67,14,7.25,NO,1662703453
245,stornoway,58.2093,-6.3865,57.92,91,75,8.05,GB,1662703454
246,hobyo,5.3505,48.5268,81.23,67,51,21.54,SO,1662703454
247,posse,-14.0931,-46.3694,65.88,51,0,7.47,BR,1662703445
248,hami,42.8,93.45,95.99,6,0,5.59,CN,1662703455
249,novi iskar,42.8,23.35,62.85,72,0,3.44,BG,1662703274
250,alcantarilla,37.9694,-1.2171,71.91,57,26,4.27,ES,1662703455
251,stara tura,48.7772,17.6943,58.66,96,0,3.44,SK,1662703456
252,joshimath,30.5667,79.5667,79.02,67,14,7.25,IN,1662703456
253,genhe,50.7833,121.5167,81.81,29,6,13.18,CN,1662703456
254,nelson bay,-32.7167,152.15,67.41,79,85,10.0,AU,1662703457
255,nome,64.5011,-165.4064,53.67,66,100,10.36,US,1662703457
256,ust-omchug,61.15,149.6333,46.02,89,100,2.35,RU,1662703458
257,ha tinh,18.3333,105.9,79.54,91,100,5.95,VN,1662703458
258,saint anthony,45.0205,-93.218,73.24,73,0,3.44,US,1662703214
259,norman wells,65.282,-126.8329,46.08,69,61,6.17,CA,1662703297
260,valparaiso,-33.0393,-71.6273,51.48,100,0,5.75,CL,1662703221
261,saint-joseph,-21.3667,55.6167,73.78,67,30,13.0,RE,1662703459
262,owando,-0.4819,15.8999,72.23,91,100,3.51,CG,1662703459
263,santa isabel do rio negro,-0.4139,-65.0192,71.65,98,19,2.42,BR,1662703460
264,shaoyang,27.2315,111.4525,95.13,25,63,5.5,CN,1662703460
265,axim,4.8699,-2.2405,73.53,92,98,6.31,GH,1662703460
266,chuy,-33.6971,-53.4616,58.03,98,74,3.29,UY,1662703263
267,sola,-13.8833,167.55,80.51,77,20,18.1,VU,1662703461
268,cincu,45.9167,24.8,65.61,62,54,3.33,RO,1662703461
269,abu samrah,35.3029,37.1841,81.32,29,0,1.88,SY,1662703462
270,lazaro cardenas,17.9583,-102.2,78.46,89,70,3.89,MX,1662703462
271,half moon bay,37.4636,-122.4286,66.96,75,0,11.5,US,1662703462
272,buala,-8.145,159.5921,83.5,71,71,7.63,SB,1662703166
273,ribeira grande,38.5167,-28.7,75.06,92,100,22.44,PT,1662703423
274,japura,-0.3167,102.35,88.32,58,99,2.57,ID,1662703463
275,arica,-18.475,-70.3042,55.65,86,40,2.33,CL,1662703463
276,bonavista,48.6499,-53.1147,53.69,71,1,13.44,CA,1662703464
277,chengde,40.9725,117.9361,94.12,19,99,7.85,CN,1662703464
278,bartica,6.4,-58.6167,77.32,99,68,1.34,GY,1662703465
279,raymondville,26.4815,-97.7831,77.05,69,17,7.67,US,1662703465
280,komsomolskiy,40.4272,71.7189,84.92,23,0,4.61,UZ,1662703465
281,cherskiy,68.75,161.3,55.65,58,100,9.06,RU,1662703466
282,scarborough,54.2797,-0.4044,57.16,92,100,8.01,GB,1662703214
283,sukumo,32.9333,132.7333,82.58,75,69,2.1,JP,1662703442
284,erzincan,39.75,39.5,67.14,36,0,0.78,TR,1662703323
285,palmer,42.1584,-72.3287,53.53,90,0,3.04,US,1662703252
286,pronsk,54.1048,39.6092,47.52,63,70,13.15,RU,1662703467
287,saskylakh,71.9167,114.0833,39.94,96,100,12.75,RU,1662703246
288,ternate,0.8,127.4,83.86,71,48,7.2,ID,1662703467
289,mathathane,-22.2687,28.7495,68.74,49,0,3.49,BW,1662703468
290,pevek,69.7008,170.3133,48.34,56,35,18.88,RU,1662703468
291,basoko,1.2391,23.616,70.83,93,99,2.57,CD,1662703468
292,tateyama,34.9833,139.8667,85.1,73,91,11.07,JP,1662703371
293,tiksi,71.6872,128.8694,44.08,79,94,16.02,RU,1662703193
294,javanrud,34.7961,46.5172,83.34,21,0,7.0,IR,1662703469
295,roebourne,-20.7833,117.1333,77.22,50,70,15.88,AU,1662703470
296,cidreira,-30.1811,-50.2056,63.48,89,99,10.74,BR,1662703470
297,san carlos de bariloche,-41.1456,-71.3082,31.12,66,20,4.61,AR,1662703470
298,shieli,44.1667,66.75,75.83,16,41,16.22,KZ,1662703471
299,san andres,12.5847,-81.7006,78.82,94,20,2.3,CO,1662703471
300,kavaratti,10.5669,72.642,79.97,84,96,22.88,IN,1662703472
301,laguna,38.421,-121.4238,85.24,36,0,5.75,US,1662703472
302,asfi,32.2994,-9.2372,68.7,94,11,12.59,MA,1662703472
303,haines junction,60.7522,-137.5108,46.98,89,99,7.63,CA,1662703473
304,egvekinot,66.3167,-179.1667,37.72,69,1,2.46,RU,1662703473
305,mangrol,21.1167,70.1167,89.08,68,74,8.59,IN,1662703473
306,bathsheba,13.2167,-59.5167,83.01,78,40,11.5,BB,1662703474
307,atambua,-9.1061,124.8925,85.15,44,7,2.86,ID,1662703475
308,verkhoyansk,67.5447,133.385,43.92,85,100,4.41,RU,1662703475
309,ilulissat,69.2167,-51.1,50.02,50,75,13.8,GL,1662703475
310,nenjiang,49.1833,125.2167,84.0,22,4,14.18,CN,1662703476
311,sao filipe,14.8961,-24.4956,78.03,81,14,7.85,CV,1662703476
312,los llanos de aridane,28.6585,-17.9182,67.12,92,75,11.5,ES,1662703476
313,aljezur,37.3191,-8.8033,67.17,97,59,5.14,PT,1662703213
314,jiran,24.3167,74.8833,88.95,58,47,10.2,IN,1662703477
315,emerald,-23.5333,148.1667,77.14,38,69,8.05,AU,1662703477
316,henties bay,-22.116,14.2845,56.98,83,0,6.49,NA,1662703478
317,datong,40.0936,113.2914,81.59,24,83,7.76,CN,1662703478
318,tacuarembo,-31.7333,-55.9833,64.42,97,88,7.52,UY,1662703479
319,rawson,-43.3002,-65.1023,38.68,82,19,7.54,AR,1662703479
320,sandy bay,-42.913,147.3532,65.16,70,100,10.36,AU,1662703479
321,gadung,6.8025,124.02,81.97,74,84,4.41,PH,1662703480
322,pitimbu,-7.4706,-34.8086,68.59,71,11,9.78,BR,1662703480
323,paamiut,61.994,-49.6678,43.02,80,89,15.93,GL,1662703480
324,lodwar,3.1191,35.5973,81.79,46,39,11.63,KE,1662703481
325,marsa matruh,31.3525,27.2453,78.89,60,0,10.92,EG,1662703481
326,kontagora,10.3999,5.4695,70.21,98,93,3.47,NG,1662703482
327,dondo,-19.6094,34.7431,72.1,68,1,1.14,MZ,1662703482
328,progreso,21.2833,-89.6667,74.1,83,100,2.66,MX,1662703296
329,isiro,2.7739,27.616,69.53,96,95,2.08,CD,1662703483
330,sisimiut,66.9395,-53.6735,47.89,63,100,8.95,GL,1662703483
331,klaksvik,62.2266,-6.589,50.92,93,96,8.77,FO,1662703483
332,upata,8.0086,-62.3989,69.64,96,35,3.4,VE,1662703484
333,taoudenni,22.6783,-3.9836,90.77,17,18,1.88,ML,1662703485
334,serowe,-22.3833,26.7167,65.68,49,0,5.26,BW,1662703485
335,andenes,69.3143,16.1194,46.38,81,75,5.75,NO,1662703486
336,les cayes,18.2,-73.75,77.32,82,0,3.27,HT,1662703486
337,ketchikan,55.3422,-131.6461,54.07,94,100,0.0,US,1662703486
338,mastic beach,40.7668,-72.8521,62.13,70,0,9.78,US,1662703370
339,tautira,-17.7333,-149.15,77.02,78,17,22.21,PF,1662703274
340,kattivakkam,13.2167,80.3167,89.69,57,99,6.44,IN,1662703487
341,pacific grove,36.6177,-121.9166,61.65,86,0,3.44,US,1662703488
342,solnechnyy,50.7214,136.6319,63.03,38,17,9.4,RU,1662703488
343,namyslow,51.0759,17.7228,59.32,82,0,4.32,PL,1662703488
344,leninskoye,41.7589,69.3864,85.24,19,29,6.08,KZ,1662703489
345,alekseyevka,50.6309,38.6903,51.55,62,6,9.51,RU,1662703489
346,tomatlan,19.9333,-105.25,74.35,93,77,2.95,MX,1662703489
347,ystad,55.4297,13.8204,56.14,92,99,5.64,SE,1662703490
348,sitio novo do tocantins,-5.5183,-47.4611,73.42,69,8,1.97,BR,1662703490
349,san policarpo,12.1791,125.5072,81.72,78,97,2.26,PH,1662703491
350,luang prabang,19.8856,102.1347,80.8,81,100,1.5,LA,1662703491
351,okhotsk,59.3833,143.3,53.67,74,99,8.39,RU,1662703347
352,port lincoln,-34.7333,135.8667,57.79,73,94,18.07,AU,1662703491
353,pareora,-44.4871,171.2132,48.18,89,17,7.49,NZ,1662703492
354,general roca,-39.0333,-67.5833,39.61,57,55,5.39,AR,1662703492
355,sao miguel do araguaia,-13.275,-50.1628,76.68,31,0,5.57,BR,1662703493
356,neuquen,-38.9516,-68.0591,48.09,49,0,9.22,AR,1662703493
357,capao bonito,-24.0058,-48.3494,63.66,63,29,0.83,BR,1662703278
358,teguise,29.0605,-13.564,68.22,83,20,14.97,ES,1662703494
359,teya,60.3778,92.6267,47.68,65,85,10.83,RU,1662703494
360,hibbing,47.4272,-92.9377,62.24,47,0,11.5,US,1662703494
361,kissidougou,9.1848,-10.0999,67.3,99,63,3.49,GN,1662703495
362,acajutla,13.5928,-89.8275,78.44,86,78,4.7,SV,1662703495
363,zabol,32.25,67.25,79.29,15,0,3.85,AF,1662703495
364,seaside,36.6111,-121.8516,62.89,86,13,1.01,US,1662703267
365,penal,10.1667,-61.4667,77.9,84,91,9.13,TT,1662703496
366,wanxian,30.8039,108.3897,87.67,46,97,4.41,CN,1662703497
367,iqaluit,63.7506,-68.5145,47.7,76,42,11.01,CA,1662703217
368,broome,42.2506,-75.833,60.82,88,0,3.44,US,1662703497
369,sioux lookout,50.1001,-91.917,56.64,67,97,7.61,CA,1662703497
370,imbituba,-28.24,-48.6703,69.85,90,69,8.14,BR,1662703498
371,cayenne,4.9333,-52.3333,73.44,100,40,0.0,GF,1662703208
372,freeport,40.6576,-73.5832,65.46,61,0,6.91,US,1662703498
373,tarauaca,-8.1614,-70.7656,74.26,73,54,2.44,BR,1662703207
374,saint-francois,46.4154,3.9054,56.64,88,0,3.44,FR,1662703499
375,kloulklubed,7.0419,134.2556,84.11,69,64,7.11,PW,1662703499
376,ola,59.5833,151.2833,53.15,94,100,18.95,RU,1662703500
377,shanghai,31.2222,121.4581,84.2,61,0,8.95,CN,1662703500
378,eureka,40.8021,-124.1637,53.98,91,0,1.01,US,1662703500
379,yadrin,55.9405,46.2062,43.3,90,100,10.07,RU,1662703501
380,hostotipaquillo,21.0667,-104.0667,69.04,96,99,3.11,MX,1662703501
381,pozo colorado,-23.4923,-58.7972,82.33,34,1,5.68,PY,1662703502
382,bahia honda,22.9036,-83.1592,77.0,87,85,3.96,CU,1662703502
383,gouyave,12.1646,-61.7296,81.7,75,65,13.42,GD,1662703502
384,alice springs,-23.7,133.8833,72.95,27,15,4.61,AU,1662703503
385,quelimane,-17.8786,36.8883,76.39,62,5,1.48,MZ,1662703503
386,jiangyou,31.7667,104.7167,77.85,65,89,5.93,CN,1662703503
387,beyneu,45.3167,55.2,73.33,30,7,8.9,KZ,1662703504
388,college,64.8569,-147.8028,53.4,75,75,6.91,US,1662703505
389,podporozhye,60.9112,34.1706,46.53,66,41,4.0,RU,1662703505
390,sheffield lake,41.4875,-82.1015,59.74,91,0,3.0,US,1662703505
391,payo,-3.7508,103.6372,89.92,51,88,2.93,ID,1662703506
392,villaviciosa,43.4813,-5.4357,63.39,77,89,2.84,ES,1662703506
393,namatanai,-3.6667,152.4333,82.62,74,97,8.66,PG,1662703506
394,wlodawa,51.55,23.55,52.95,90,100,13.49,PL,1662703507
395,texarkana,33.4251,-94.0477,70.63,80,0,4.61,US,1662703333
396,am timan,11.0297,20.2827,72.66,92,91,6.91,TD,1662703507
397,correntina,-13.3433,-44.6367,65.08,68,0,3.98,BR,1662703508
398,thessalon,46.2501,-83.5666,64.69,84,9,7.83,CA,1662703508
399,atar,20.5169,-13.0499,88.3,38,71,3.02,MR,1662703509
400,golden,39.7555,-105.2211,72.86,34,0,5.99,US,1662703215
401,dimona,31.0667,35.0333,77.49,45,0,6.44,IL,1662703320
402,tala,30.6803,30.9429,81.97,60,0,8.63,EG,1662703509
403,faya,18.3851,42.4509,73.89,22,0,15.86,SA,1662703510
404,parnamirim,-5.9156,-35.2628,68.34,82,5,6.26,BR,1662703510
405,necochea,-38.5473,-58.7368,45.14,70,100,15.43,AR,1662703511
406,xichang,27.8964,102.2634,72.72,70,100,7.27,CN,1662703511
407,alofi,-19.0595,-169.9187,76.35,72,4,18.54,NU,1662703507
408,fairbanks,64.8378,-147.7164,52.9,75,100,1.99,US,1662703172
409,torit,4.4133,32.5678,76.68,76,67,0.85,SS,1662703512
410,wajir,1.7471,40.0573,77.85,54,32,17.94,KE,1662703512
411,zaragoza,41.6561,-0.8773,67.5,65,20,8.05,ES,1662703454
412,araguaina,-7.1911,-48.2072,77.32,40,58,4.23,BR,1662703512
413,abha,18.2164,42.5053,73.54,22,0,16.71,SA,1662703513
414,yerbogachen,61.2767,108.0108,43.72,72,100,16.46,RU,1662703513
415,port-gentil,-0.7193,8.7815,76.96,83,40,10.36,GA,1662703513
416,macas,-2.3167,-78.1167,64.29,94,86,4.03,EC,1662703219
417,la sarre,48.8002,-79.1996,58.15,74,94,7.76,CA,1662703514
418,port keats,-14.25,129.55,88.36,47,5,12.55,AU,1662703514
419,ambilobe,-13.2,49.05,83.95,32,66,7.52,MG,1662703515
420,plettenberg bay,-34.0527,23.3716,58.53,62,9,2.86,ZA,1662703515
421,hervey bay,-25.2986,152.8535,68.4,84,81,13.06,AU,1662703516
422,kapit,2.0167,112.9333,78.66,84,100,5.55,MY,1662703516
423,lasa,46.6166,10.7002,55.36,90,57,0.96,IT,1662703516
424,maxixe,-23.8597,35.3472,71.17,65,1,3.53,MZ,1662703517
425,vasto,42.1243,14.7059,73.51,73,44,4.99,IT,1662703517
426,pochutla,15.7432,-96.4661,76.82,87,97,2.91,MX,1662703518
427,verkhnyaya inta,65.9811,60.3094,38.93,94,100,16.13,RU,1662703518
428,kudahuvadhoo,2.6708,72.8944,82.51,74,78,16.04,MV,1662703518
429,bouna,9.2667,-3.0,69.04,97,100,5.08,CI,1662703519
430,ponta do sol,32.6667,-17.1,72.27,79,5,2.44,PT,1662703519
431,lompoc,34.6391,-120.4579,68.95,81,0,1.01,US,1662703520
432,togur,58.3631,82.8265,52.59,77,98,10.29,RU,1662703520
433,srednekolymsk,67.45,153.6833,50.02,86,100,9.73,RU,1662703520
434,roald,62.5833,6.1333,54.28,76,0,5.75,NO,1662703425
435,black river,18.0264,-77.8487,78.69,84,9,3.4,JM,1662703521
436,satipo,-11.2522,-74.6386,69.87,67,31,2.86,PE,1662703521
437,northam,51.0333,-4.2167,58.59,94,44,9.86,GB,1662703522
438,varkkallai,8.7341,76.7067,83.98,83,99,12.93,IN,1662703522
439,kansanshi,-12.0951,26.4273,64.62,46,19,9.78,ZM,1662703523
440,santa rosa,14.3122,121.1114,89.02,68,93,3.31,PH,1662703523
441,wilmington,34.2257,-77.9447,69.53,84,0,8.05,US,1662703523
442,tomari,47.7658,142.0683,63.09,52,0,8.25,RU,1662703524
443,bad liebenwerda,51.5167,13.4,55.04,87,29,5.7,DE,1662703524
444,fukuma,33.7667,130.4667,86.0,72,58,17.94,JP,1662703315
445,nioro,13.35,-15.75,74.71,96,98,3.91,GM,1662703525
446,mercedes,-34.6515,-59.4307,47.75,92,100,12.86,AR,1662703525
447,karpogory,64.0019,44.4451,44.22,96,100,8.25,RU,1662703525
448,sorland,67.667,12.6934,48.06,71,75,9.22,NO,1662703526
449,kaifeng,34.7911,114.3483,75.51,61,100,6.24,CN,1662703526
450,bambous virieux,-20.3428,57.7575,75.45,57,75,13.8,MU,1662703527
451,miyako,39.6367,141.9525,74.3,69,60,4.99,JP,1662703527
452,derzhavinsk,51.1,66.3167,66.09,23,27,14.81,KZ,1662703527
453,codrington,-38.2667,141.9667,57.58,84,100,6.69,AU,1662703528
454,shelburne,44.0787,-80.2041,55.42,81,8,6.8,CA,1662703528
455,khani,41.9563,42.9566,56.77,59,1,3.98,GE,1662703529
456,balad,34.0164,44.1453,101.53,12,0,11.1,IQ,1662703529
457,kedzierzyn-kozle,50.3498,18.2261,59.61,81,0,2.86,PL,1662703529
458,itoman,26.1247,127.6694,88.25,73,40,9.22,JP,1662703530
459,khatanga,71.9667,102.5,36.0,99,100,8.05,RU,1662703266
460,alindao,5.0267,21.2088,70.14,97,100,0.85,CF,1662703530
461,erenhot,43.6475,111.9767,86.02,16,1,11.74,CN,1662703530
462,san lorenzo,-25.3333,-57.5333,82.8,32,27,12.12,PY,1662703364
463,la ronge,55.1001,-105.2842,49.68,68,17,11.95,CA,1662703391
464,turayf,31.6725,38.6637,88.36,20,0,7.52,SA,1662703531
465,caravelas,-17.7125,-39.2481,68.59,80,36,4.88,BR,1662703532
466,shahreza,32.0339,51.8794,83.03,13,1,0.83,IR,1662703532
467,weston,26.1004,-80.3998,77.74,89,0,4.61,US,1662703509
468,moyale,3.5167,39.0584,69.17,53,13,14.74,KE,1662703533
469,beringovskiy,63.05,179.3167,47.46,82,4,8.28,RU,1662703533
470,araouane,18.9048,-3.5265,91.17,18,6,6.17,ML,1662703534
471,grants pass,42.439,-123.3284,63.95,36,0,12.66,US,1662703534
472,salamiyah,35.0113,37.0532,80.55,34,0,0.87,SY,1662703534
473,moose factory,51.2585,-80.6094,70.97,45,99,12.95,CA,1662703535
474,asau,46.4333,26.4,56.32,66,83,2.08,RO,1662703291
475,senanga,-16.1167,23.2667,68.0,38,1,8.43,ZM,1662703506
476,cabedelo,-6.9811,-34.8339,68.67,73,5,11.23,BR,1662703535
477,birpur,26.5167,87.0167,80.47,80,100,5.59,IN,1662703536
478,timbiqui,2.7717,-77.6654,74.59,94,91,4.32,CO,1662703536
479,sao jose da coroa grande,-8.8978,-35.1478,73.04,80,83,5.53,BR,1662703536
480,altay,47.8667,88.1167,78.19,26,94,9.84,CN,1662703537
481,waitara,-38.925,174.25,52.0,67,84,4.94,NZ,1662703537
482,nago,26.5881,127.9761,86.45,79,21,8.97,JP,1662703537
483,odienne,9.51,-7.5692,68.68,98,50,3.04,CI,1662703538
484,portmore,17.9702,-76.8672,80.06,90,12,1.54,JM,1662703538
485,homestead,25.4687,-80.4776,77.83,93,75,4.38,US,1662703400
486,spassk-dalniy,44.5978,132.8211,69.51,59,25,10.42,RU,1662703539
487,charters towers,-20.1,146.2667,81.54,45,26,16.98,AU,1662703539
488,america dourada,-11.4553,-41.4361,63.45,84,80,11.12,BR,1662703540
489,baniachang,24.5167,91.3667,93.22,55,67,5.59,BD,1662703540
490,whyalla,-33.0333,137.5833,62.26,56,28,19.1,AU,1662703540
491,bilibino,68.0546,166.4372,55.18,58,79,2.75,RU,1662703541
492,atasu,48.6814,71.6433,64.85,22,1,2.68,KZ,1662703541
493,velikiy ustyug,60.7644,46.3106,45.19,74,98,7.25,RU,1662703541
494,mantua,45.1667,10.7833,66.99,89,42,5.01,IT,1662703542
495,mulchen,-37.7167,-72.2333,40.8,91,77,2.8,CL,1662703542
496,columbus,39.9612,-82.9988,61.77,93,0,3.44,US,1662703044
497,atherton,53.5237,-2.4935,57.52,97,54,1.99,GB,1662703543
498,quatre cocos,-20.2078,57.7625,75.31,72,88,16.8,MU,1662703543
499,itarema,-2.9248,-39.9167,76.87,82,8,16.82,BR,1662703544
500,kamaishi,39.2667,141.8833,74.28,82,80,6.2,JP,1662703544
501,udachnyy,66.4167,112.4,44.46,75,100,20.04,RU,1662703545
502,hit,33.6416,42.8251,96.66,16,0,6.35,IQ,1662703545
503,rozhyshche,50.9154,25.2691,51.13,92,100,17.05,UA,1662703545
504,brigantine,39.4101,-74.3646,63.93,91,0,3.44,US,1662703546
505,tahe,52.3333,124.7333,79.63,43,20,8.88,CN,1662703546
506,kiunga,-6.1219,141.2906,87.01,68,81,3.04,PG,1662703546
507,bonthe,7.5264,-12.505,76.1,83,79,6.31,SL,1662703330
508,muisne,0.6,-80.0333,73.22,85,75,9.82,EC,1662703547
509,cordoba,-31.4135,-64.1811,48.56,33,0,16.11,AR,1662703547
510,luancheng,37.8792,114.6517,87.44,41,94,4.27,CN,1662703548
511,bobrovka,54.047,61.7455,55.67,48,92,8.25,RU,1662703548
512,kyaikto,17.3,97.0167,78.89,90,100,6.78,MM,1662703548
513,semirara,12.0697,121.3986,84.11,73,98,8.88,PH,1662703549
514,nabire,-3.3667,135.4833,81.97,76,80,3.65,ID,1662703549
515,rognan,67.0953,15.3878,46.54,79,4,0.29,NO,1662703550
516,tulum,20.2167,-87.4667,76.28,91,79,1.99,MX,1662703550
517,coihaique,-45.5752,-72.0662,39.15,81,100,3.44,CL,1662703550
518,mangaluru,12.8667,74.8833,83.26,78,75,9.22,IN,1662703551
519,madison heights,42.4859,-83.1052,60.84,81,0,3.44,US,1662703551
520,kariba,-16.5167,28.8,70.65,43,0,4.12,ZW,1662703551
521,atakpame,7.5333,1.1333,68.85,97,98,3.31,TG,1662703552
522,jalu,29.0331,21.5482,75.69,60,0,8.08,LY,1662703552
523,ostersund,63.1792,14.6357,45.05,93,0,5.75,SE,1662703553
524,zeya,53.75,127.2667,68.79,47,21,7.2,RU,1662703279
525,goderich,43.7501,-81.7165,58.91,74,2,9.82,CA,1662703293
526,thouars,46.976,-0.2151,59.52,90,3,11.9,FR,1662703553
527,umm kaddadah,13.6017,26.6876,83.19,59,26,9.44,SD,1662703554
528,novosergiyevka,52.0934,53.6528,57.47,42,98,7.09,RU,1662703350
529,narsaq,60.9167,-46.05,44.82,68,63,1.45,GL,1662703554
530,tommot,58.9564,126.2925,54.45,84,100,11.12,RU,1662703555
531,aklavik,68.2191,-135.0107,44.65,75,69,5.79,CA,1662703363
532,korla,41.7597,86.1469,91.81,11,0,9.24,CN,1662703555
533,desert hot springs,33.9611,-116.5017,88.75,38,0,4.61,US,1662703556
534,aksarka,66.5606,67.7975,44.33,67,97,11.18,RU,1662703556
535,xai-xai,-25.0519,33.6442,69.15,64,0,8.1,MZ,1662703556
536,lamu,-2.2717,40.902,80.82,70,39,13.58,KE,1662703557
537,poquoson,37.1224,-76.3458,69.12,82,20,9.22,US,1662703557
538,bulgan,48.8125,103.5347,77.23,31,13,4.83,MN,1662703557
539,vitim,59.4511,112.5578,52.92,64,96,14.76,RU,1662703484
540,westport,41.1415,-73.3579,59.7,85,0,6.91,US,1662703355
541,nemuro,43.3236,145.575,69.3,75,58,2.95,JP,1662703558
542,mount gambier,-37.8333,140.7667,58.91,88,75,6.91,AU,1662703541
543,bauchi,10.5,10.0,70.66,93,100,3.38,NG,1662703559
544,iranshahr,27.2025,60.6848,94.73,29,0,3.38,IR,1662703559
545,chernyshevskiy,63.0128,112.4714,38.8,91,100,16.84,RU,1662703560
546,vermilion,40.1667,-87.7506,60.17,91,0,5.14,US,1662703560
547,broken hill,-31.95,141.4333,59.59,61,96,26.06,AU,1662703560
548,havoysund,70.9963,24.6622,48.43,91,100,22.95,NO,1662703561
549,la palma,33.8464,-118.0467,86.02,46,0,4.61,US,1662703561
550,kapoeta,4.7717,33.5903,81.46,46,60,17.72,SS,1662703561
551,maniitsoq,65.4167,-52.9,44.92,71,100,10.04,GL,1662703562
552,krasnoye-na-volge,57.5125,41.2419,44.46,72,24,8.93,RU,1662703562
553,jibuti,11.5,42.5,82.81,53,8,2.86,DJ,1662703563
554,daitari,21.1,85.75,84.99,67,98,15.64,IN,1662703563
555,smithers,54.7804,-127.1743,46.06,91,18,3.15,CA,1662703563
556,neiafu,-18.65,-173.9833,77.68,78,20,6.91,TO,1662703564
557,orlik,52.5178,99.825,55.27,73,66,11.48,RU,1662703564
558,trairi,-3.2778,-39.2689,76.8,79,9,13.98,BR,1662703411
