City,Latitude,Longitude,Max Temperature,Humidity,Cloudiness,Wind Speed,Country,Date
punta arenas,-53.15,-70.9167,32.11,80,0,12.66,CL,1662515999
ponta do sol,32.6667,-17.1,70.09,75,35,2.44,PT,1662515992
bluff,-46.6,168.3333,41.81,71,67,12.44,NZ,1662515985
castro,-24.7911,-50.0119,53.51,98,100,9.71,BR,1662516063
barrow,71.2906,-156.7887,48.22,71,0,4.61,US,1662516094
ahipara,-35.1667,173.1667,59.16,50,19,0.6,NZ,1662516212
cape town,-33.9258,18.4232,48.58,78,0,4.0,ZA,1662515864
hobart,-42.8794,147.3294,57.96,63,40,5.75,AU,1662515755
umm lajj,25.0213,37.2685,84.61,54,0,11.21,SA,1662516213
busselton,-33.65,115.3333,58.35,75,100,7.38,AU,1662515978
qaanaaq,77.484,-69.3632,36.43,93,100,5.44,GL,1662515985
haines junction,60.7522,-137.5108,56.75,48,100,2.1,CA,1662516213
atherton,53.5237,-2.4935,57.6,89,72,7.81,GB,1662516214
arraial do cabo,-22.9661,-42.0278,67.87,73,97,20.78,BR,1662516131
gat,31.61,34.7642,72.32,100,11,5.35,IL,1662515917
nishihara,26.1842,127.7558,83.48,61,40,16.11,JP,1662515979
airai,-8.9266,125.4092,76.98,33,74,2.35,TL,1662515983
ribeira grande,38.5167,-28.7,76.35,85,99,17.49,PT,1662515994
rikitea,-23.1203,-134.9692,73.0,76,100,25.14,PF,1662515993
bereznik,62.8551,42.7072,43.43,96,100,5.75,RU,1662516215
nizwa,22.9333,57.5333,80.17,56,1,1.7,OM,1662516216
kosonsoy,41.2561,71.5508,68.56,17,0,6.38,UZ,1662516216
yellowknife,62.456,-114.3525,54.12,66,75,13.8,CA,1662515976
jamestown,42.097,-79.2353,62.78,73,100,10.36,US,1662515757
saint george,37.1041,-113.5841,103.48,11,0,11.5,US,1662516037
avarua,-21.2078,-159.775,78.85,78,20,11.5,CK,1662515994
port alfred,-33.5906,26.891,51.19,92,0,1.01,ZA,1662515992
vaini,-21.2,-175.2,82.56,89,40,9.22,TO,1662515976
albany,42.6001,-73.9662,62.64,95,100,1.9,US,1662515989
coquimbo,-29.9533,-71.3436,51.53,100,100,4.61,CL,1662516218
grand gaube,-20.0064,57.6608,68.38,72,99,17.52,MU,1662516147
ushuaia,-54.8,-68.3,29.86,86,75,3.44,AR,1662515977
kapaa,22.0752,-159.319,82.08,71,9,5.01,US,1662515998
kununurra,-15.7667,128.7333,93.18,29,75,8.05,AU,1662516219
sretensk,52.2453,117.7093,60.37,54,18,5.08,RU,1662516219
luderitz,-26.6481,15.1594,61.99,50,0,6.85,NA,1662515978
bengkulu,-3.8004,102.2655,77.52,80,100,7.11,ID,1662515981
pisco,-13.7,-76.2167,60.85,82,0,8.05,PE,1662515984
dakar,14.6937,-17.4441,79.68,83,100,17.25,SN,1662516220
lasa,46.6166,10.7002,61.36,86,82,1.83,IT,1662516160
hofn,64.2539,-15.2082,52.2,83,62,8.81,IS,1662516221
ulaanbaatar,47.9077,106.8832,57.33,54,0,0.0,MN,1662516017
maceio,-9.6658,-35.7353,72.84,83,40,4.61,BR,1662516016
ondjiva,-17.0667,15.7333,64.8,25,0,5.3,AO,1662516221
port blair,11.6667,92.75,81.9,81,100,19.55,IN,1662516025
saint-philippe,-21.3585,55.7679,64.09,73,27,9.57,RE,1662516041
vanavara,60.34,102.2797,45.09,80,26,6.29,RU,1662516222
grand-santi,4.25,-54.3833,76.37,80,97,3.47,GF,1662516081
gravdal,68.1214,13.5031,49.21,83,100,8.84,NO,1662516223
bambous virieux,-20.3428,57.7575,68.22,74,90,12.35,MU,1662516093
khasan,42.4308,130.6434,69.62,51,0,12.93,RU,1662516223
port elizabeth,-33.918,25.5701,49.32,88,0,1.99,ZA,1662516061
san patricio,28.017,-97.5169,79.59,83,100,5.77,US,1662516224
east london,-33.0153,27.9116,56.8,73,0,5.59,ZA,1662516100
hasaki,35.7333,140.8333,84.6,79,100,6.62,JP,1662516045
atuona,-9.8,-139.0333,77.13,78,19,19.17,PF,1662515977
daru,-9.0763,143.2092,82.78,76,82,12.8,PG,1662516224
shu,43.5983,73.7614,75.24,19,0,8.57,KZ,1662516225
ngawi,-7.4038,111.4461,86.07,57,90,4.47,ID,1662516225
chokurdakh,70.6333,147.9167,59.58,33,22,10.67,RU,1662516048
bethel,41.3712,-73.414,63.77,90,100,3.0,US,1662515984
lebu,-37.6167,-73.65,51.55,90,88,17.31,CL,1662515991
upernavik,72.7868,-56.1549,39.15,94,98,8.14,GL,1662516059
dubti,11.7361,41.0853,82.58,58,36,17.58,ET,1662516226
thompson,55.7435,-97.8558,61.54,49,7,11.68,CA,1662516154
san nicolas,18.1725,120.5953,84.9,76,77,6.11,PH,1662516073
norman wells,65.282,-126.8329,49.3,69,55,7.2,CA,1662516135
aklavik,68.2191,-135.0107,48.45,59,89,2.46,CA,1662516227
avera,33.194,-82.5271,76.48,75,100,6.69,US,1662516228
dikson,73.5069,80.5464,37.65,78,100,20.45,RU,1662516046
rathenow,52.6066,12.337,58.01,76,77,6.29,DE,1662516228
sitka,57.0531,-135.33,50.83,90,100,7.92,US,1662516151
tuatapere,-46.1333,167.6833,45.1,86,100,6.02,NZ,1662516105
khatanga,71.9667,102.5,36.3,80,100,13.4,RU,1662516074
coahuayana,18.7333,-103.6833,77.76,84,100,3.98,MX,1662516042
cherskiy,68.75,161.3,54.43,43,72,19.62,RU,1662516120
kamenka,51.3223,42.7678,39.79,81,8,6.55,RU,1662516229
saint-joseph,-21.3667,55.6167,63.09,73,14,8.9,RE,1662516230
kodiak,57.79,-152.4072,52.34,84,100,2.17,US,1662516088
kahului,20.8947,-156.47,84.38,75,52,10.0,US,1662515856
buala,-8.145,159.5921,85.41,68,30,9.57,SB,1662516230
yumen,40.2833,97.2,75.16,13,63,2.44,CN,1662516141
turayf,31.6725,38.6637,72.5,50,0,8.55,SA,1662516231
muros,42.7762,-9.0603,65.84,81,100,11.21,ES,1662516231
mahajanga,-15.7167,46.3167,69.03,65,0,9.46,MG,1662516232
santa lucia,27.9117,-15.5407,65.5,73,40,20.71,ES,1662516232
hilo,19.7297,-155.09,78.19,91,8,8.7,US,1662515858
edson,53.5835,-116.4356,58.21,58,15,5.68,CA,1662516019
dindigul,10.35,77.95,76.42,81,98,1.92,IN,1662516156
ternate,0.8,127.4,83.1,70,100,1.23,ID,1662516112
muskegon,43.3,-86.1334,64.51,83,0,0.0,US,1662516233
carnarvon,-24.8667,113.6333,66.16,52,88,9.53,AU,1662516017
havre-saint-pierre,50.2334,-63.5986,55.9,66,99,6.4,CA,1662516233
butaritari,3.0707,172.7902,81.73,70,100,18.16,KI,1662515978
guasdualito,7.2424,-70.7324,72.23,89,95,2.84,VE,1662516207
berlevag,70.8578,29.0864,37.35,87,100,3.44,NO,1662516234
sedam,17.1773,77.2824,78.15,81,100,5.3,IN,1662516235
saskylakh,71.9167,114.0833,43.23,82,100,4.45,RU,1662516046
twin falls,42.3505,-114.6445,86.94,15,82,3.42,US,1662516062
pangnirtung,66.1451,-65.7125,38.57,82,100,4.9,CA,1662515996
boca do acre,-8.7522,-67.3978,78.96,41,19,2.48,BR,1662516235
longyearbyen,78.2186,15.6401,39.52,92,95,5.06,SJ,1662516028
rio gallegos,-51.6226,-69.2181,33.19,61,1,13.67,AR,1662516022
san carlos de bariloche,-41.1456,-71.3082,48.02,62,100,8.39,AR,1662516236
fairbanks,64.8378,-147.7164,57.15,68,40,1.99,US,1662516000
curaca,-8.9903,-39.9094,72.3,70,33,20.2,BR,1662516237
severo-kurilsk,50.6789,156.125,55.04,86,100,13.44,RU,1662516068
pontianak,-0.0333,109.3333,83.98,79,20,3.44,ID,1662516092
pedasi,7.5333,-80.0333,79.07,83,92,4.03,PA,1662516238
ancud,-41.8697,-73.8203,45.23,90,100,21.68,CL,1662516238
lehututu,-23.9667,21.8667,56.12,16,0,6.31,BW,1662516238
puerto ayora,-0.7393,-90.3518,68.49,92,100,11.34,EC,1662516025
codrington,-38.2667,141.9667,60.26,66,100,17.54,AU,1662516069
gardner,42.5751,-71.9981,57.67,93,100,3.44,US,1662516049
lompoc,34.6391,-120.4579,77.52,66,0,9.22,US,1662516137
geraldton,-28.7667,114.6,61.21,77,0,6.91,AU,1662516173
serebryansk,49.6925,83.2892,73.94,23,3,6.78,KZ,1662516240
pacific grove,36.6177,-121.9166,65.75,80,11,4.0,US,1662516008
weihai,37.5017,122.1136,74.26,62,0,9.28,CN,1662516240
georgetown,5.4112,100.3354,77.54,96,40,6.91,MY,1662515958
nikolskoye,59.7035,30.7861,49.5,97,71,7.02,RU,1662515983
katsuura,35.1333,140.3,82.58,80,100,6.87,JP,1662515729
requena,39.4883,-1.1004,67.78,40,67,4.56,ES,1662516241
canavieiras,-15.675,-38.9472,69.26,78,73,8.03,BR,1662516241
ostrovnoy,68.0531,39.5131,43.81,76,99,17.58,RU,1662516003
iquitos,-3.7481,-73.2472,78.84,94,75,4.61,PE,1662516242
yerbogachen,61.2767,108.0108,45.07,77,94,9.01,RU,1662516102
walvis bay,-22.9575,14.5053,53.1,79,0,0.72,NA,1662516165
bredasdorp,-34.5322,20.0403,44.65,90,13,3.18,ZA,1662516056
mahebourg,-20.4081,57.7,68.25,75,84,12.33,MU,1662516093
olafsvik,64.8945,-23.7142,50.52,84,28,5.99,IS,1662515987
san juan,-31.5375,-68.5364,67.12,12,0,8.99,AR,1662515741
russellville,35.2784,-93.1338,74.25,92,0,0.0,US,1662516245
am timan,11.0297,20.2827,71.37,94,100,3.33,TD,1662516245
suntar,62.1444,117.6319,47.95,72,100,6.8,RU,1662516246
acapulco,16.8634,-99.8901,80.87,79,100,1.72,MX,1662516102
cabo san lucas,22.8909,-109.9124,75.88,89,100,26.98,MX,1662515865
bubaque,11.2833,-15.8333,78.03,88,100,14.27,GW,1662516116
nichinan,31.6,131.3667,83.23,63,100,3.76,JP,1662516136
mataura,-46.1927,168.8643,41.49,99,100,3.96,NZ,1662515990
mackay,-21.15,149.2,76.68,64,13,11.16,AU,1662516247
shelburne,44.0787,-80.2041,56.28,87,12,4.07,CA,1662516248
fillan,63.6064,8.9696,40.44,79,56,10.16,NO,1662516248
elizabeth city,36.2946,-76.2511,76.41,93,98,4.05,US,1662516122
mar del plata,-38.0023,-57.5575,56.03,84,10,11.99,AR,1662515965
tessalit,20.1986,1.0114,85.24,44,1,6.35,ML,1662516249
merauke,-8.4667,140.3333,82.99,73,100,8.88,ID,1662516250
yarada,17.65,83.2667,80.92,94,75,2.3,IN,1662516250
ponta delgada,37.7333,-25.6667,74.12,88,75,12.66,PT,1662516159
saint-pierre,-21.3393,55.4781,63.88,70,0,9.22,RE,1662516251
udachnyy,66.4167,112.4,44.46,81,37,15.57,RU,1662516251
gamboula,4.1178,15.1393,66.6,99,100,3.31,CF,1662516252
tura,25.5198,90.2201,79.56,84,66,2.77,IN,1662516252
wajir,1.7471,40.0573,72.61,66,13,16.13,KE,1662516253
dingle,10.9995,122.6711,84.06,74,56,3.6,PH,1662516254
rio grande,-32.035,-52.0986,52.95,95,100,8.52,BR,1662516254
banda aceh,5.5577,95.3222,77.34,86,100,15.82,ID,1662516254
polunochnoye,60.8697,60.4153,41.29,86,100,3.62,RU,1662516255
mahibadhoo,3.7833,72.9667,79.39,82,100,14.36,MV,1662516121
monrovia,6.3005,-10.7969,74.79,92,100,9.93,LR,1662516040
cap malheureux,-19.9842,57.6142,68.47,72,100,17.76,MU,1662516098
kulhudhuffushi,6.6221,73.07,79.48,81,100,17.65,MV,1662516256
gazanjyk,39.2446,55.5154,67.6,43,0,11.05,TM,1662516256
sola,-13.8833,167.55,80.82,76,18,14.63,VU,1662516130
aketi,2.7388,23.7833,69.26,98,100,0.76,CD,1662516257
guerrero negro,27.9769,-114.0611,82.04,69,9,5.7,MX,1662515987
meulaboh,4.1363,96.1285,78.71,74,100,3.4,ID,1662516259
faanui,-16.4833,-151.75,78.55,74,6,16.55,PF,1662516167
tuktoyaktuk,69.4541,-133.0374,37.4,87,100,10.36,CA,1662515991
kindu,-2.95,25.95,69.58,93,82,2.13,CD,1662516260
kavieng,-2.5744,150.7967,84.6,69,83,8.37,PG,1662516168
vestmannaeyjar,63.4427,-20.2734,52.09,89,31,7.23,IS,1662516191
karpathos,35.507,27.2132,75.16,73,0,26.46,GR,1662516260
maniwaki,46.3834,-75.966,55.24,75,3,1.63,CA,1662516261
iqaluit,63.7506,-68.5145,43.7,81,100,8.99,CA,1662516037
pochutla,15.7432,-96.4661,77.83,87,100,3.13,MX,1662516262
bantou,26.2151,117.4893,81.52,59,94,2.62,CN,1662516262
namatanai,-3.6667,152.4333,84.63,69,47,8.52,PG,1662516199
angoche,-16.2325,39.9086,73.6,76,45,5.7,MZ,1662516110
noyabrsk,63.1994,75.4507,43.32,82,100,2.68,RU,1662516263
kaeo,-35.1,173.7833,58.69,51,31,6.08,NZ,1662516264
port lincoln,-34.7333,135.8667,59.43,80,94,20.69,AU,1662516054
kawalu,-7.3817,108.2082,78.62,78,72,4.09,ID,1662516264
ojinaga,29.5667,-104.4167,83.35,36,0,9.22,MX,1662516050
sioux lookout,50.1001,-91.917,61.43,60,24,5.82,CA,1662516025
iskateley,67.6803,53.1512,37.81,87,91,5.91,RU,1662516265
gornopravdinsk,60.05,69.9,44.85,80,100,5.68,RU,1662516266
kaitangata,-46.2817,169.8464,44.04,94,100,7.31,NZ,1662516078
provideniya,64.3833,-173.3,46.51,93,100,15.99,RU,1662515995
nanakuli,21.3906,-158.1547,85.91,54,75,10.36,US,1662516267
vila franca do campo,37.7167,-25.4333,77.2,93,60,12.35,PT,1662516053
rincon,32.296,-81.2354,79.16,87,0,3.44,US,1662516267
panguna,-6.3164,155.4848,79.95,68,21,3.42,PG,1662516124
saint-prosper,46.2117,-70.4811,54.72,95,0,0.94,CA,1662516268
dunedin,-45.8742,170.5036,49.8,71,100,8.01,NZ,1662515956
ovsyanka,55.9575,92.5519,51.22,92,100,2.62,RU,1662516269
valkla,59.4744,25.3186,51.66,73,68,11.1,EE,1662516269
tiksi,71.6872,128.8694,42.06,86,100,9.69,RU,1662516148
bellavista,-7.0561,-76.5911,72.81,73,22,1.39,PE,1662516270
poum,-20.2333,164.0167,71.64,77,91,19.57,NC,1662516132
cidreira,-30.1811,-50.2056,61.03,91,100,14.92,BR,1662516036
katherine,-14.4667,132.2667,88.12,40,81,6.91,AU,1662516271
esso,55.9333,158.7,61.18,55,100,5.17,RU,1662516271
perelyub,51.8667,50.3667,43.07,91,12,8.39,RU,1662516272
anapskaya,44.89,37.38,48.43,76,0,2.24,RU,1662516272
sorland,67.667,12.6934,48.06,81,100,14.58,NO,1662516273
mayo,38.8876,-76.5119,71.8,92,100,3.44,US,1662516147
mount isa,-20.7333,139.5,85.77,17,3,11.5,AU,1662516094
necochea,-38.5473,-58.7368,52.86,66,9,12.71,AR,1662516192
esperance,-33.8667,121.9,57.04,82,100,23.47,AU,1662516048
taoudenni,22.6783,-3.9836,96.48,14,3,9.13,ML,1662516067
aquiraz,-3.9014,-38.3911,80.69,72,70,17.02,BR,1662516274
yulara,-25.2406,130.9889,70.99,28,0,19.15,AU,1662516274
fortuna,40.5982,-124.1573,65.19,80,0,8.05,US,1662516140
salalah,17.0151,54.0924,76.15,91,98,7.45,OM,1662516165
torbay,47.6666,-52.7314,56.68,92,100,11.99,CA,1662516001
pietarsaari,63.65,22.6833,33.93,72,100,13.4,FI,1662516275
saint-augustin,51.226,-58.6502,52.92,85,100,1.81,CA,1662516275
prince rupert,54.3161,-130.3201,54.09,87,96,13.35,CA,1662516074
kavaratti,10.5669,72.642,80.11,80,100,21.03,IN,1662516047
chuy,-33.6971,-53.4616,55.51,97,77,6.76,UY,1662515979
sakakah,29.9697,40.2064,83.41,23,0,7.74,SA,1662516276
isabela,6.7085,121.9711,87.85,91,100,4.72,PH,1662516277
ukiah,39.1502,-123.2078,96.75,16,0,3.15,US,1662516003
katete,-0.7818,29.7544,60.49,93,95,2.13,UG,1662516277
harper,4.375,-7.7169,75.29,88,88,9.31,LR,1662516108
atasu,48.6814,71.6433,65.95,43,56,14.79,KZ,1662516278
guadix,37.2993,-3.1392,66.33,38,78,2.04,ES,1662516278
jequie,-13.8575,-40.0836,65.25,96,93,3.58,BR,1662516279
tete,-16.1564,33.5867,70.38,68,0,7.65,MZ,1662516249
margate,51.3813,1.3862,61.52,96,66,4.0,GB,1662516280
frontera,26.9333,-101.45,77.32,78,100,1.01,MX,1662516280
hualmay,-11.0964,-77.6139,60.66,83,11,9.01,PE,1662516153
klaksvik,62.2266,-6.589,58.12,92,50,17.09,FO,1662516281
leopold,-38.1833,144.4667,58.51,73,75,11.5,AU,1662516281
lac du bonnet,50.2536,-96.0612,61.79,43,6,3.49,CA,1662516011
itaituba,-4.2761,-55.9836,77.43,74,69,1.99,BR,1662516282
los llanos de aridane,28.6585,-17.9182,65.12,88,0,9.22,ES,1662516282
port macquarie,-31.4333,152.9167,66.88,66,100,6.13,AU,1662516283
hithadhoo,-0.6,73.0833,81.61,68,66,15.82,MV,1662516283
ofunato,39.0717,141.7167,82.36,66,61,0.87,JP,1662516283
port hardy,50.6996,-127.4199,59.92,71,100,5.59,CA,1662516284
saint anthony,45.0205,-93.218,72.9,78,0,0.0,US,1662516284
idah,7.1065,6.7342,72.3,98,100,2.66,NG,1662516284
obodivka,48.4051,29.2477,42.93,64,5,5.59,UA,1662516285
kruisfontein,-34.0033,24.7314,47.35,85,0,4.79,ZA,1662515999
ketchikan,55.3422,-131.6461,55.87,88,100,21.85,US,1662516285
tucumcari,35.1717,-103.725,78.64,34,0,4.61,US,1662516286
tasiilaq,65.6145,-37.6368,39.36,91,52,5.79,GL,1662516286
portland,45.5234,-122.6762,85.57,33,0,8.05,US,1662516086
belmonte,-15.8631,-38.8828,71.02,75,88,11.36,BR,1662516287
pevek,69.7008,170.3133,39.49,76,96,13.6,RU,1662516287
billings,45.7833,-108.5007,79.92,31,20,6.91,US,1662516285
kupang,-10.1667,123.5833,84.83,56,7,3.85,ID,1662516070
takanosu,40.2219,140.3694,79.88,45,5,5.99,JP,1662516288
zabid,14.1951,43.3152,88.05,68,64,5.19,YE,1662516288
sisimiut,66.9395,-53.6735,40.66,85,99,1.97,GL,1662516289
baijiantan,45.6333,85.1833,85.66,14,95,1.83,CN,1662516289
islampur,26.2667,88.2,81.36,83,47,10.31,IN,1662516289
kandrian,-6.2167,149.55,85.21,66,95,11.7,PG,1662516290
hami,42.8,93.45,83.95,9,3,9.24,CN,1662516290
gwanda,-20.9333,29.0,57.24,84,100,11.9,ZW,1662516290
kholodnyy,62.7167,147.95,53.42,53,17,8.39,RU,1662516291
srednekolymsk,67.45,153.6833,61.86,33,1,7.76,RU,1662516291
inta,66.0317,60.1659,34.86,95,100,12.21,RU,1662516292
bathsheba,13.2167,-59.5167,83.01,83,20,5.75,BB,1662516292
mbigou,-1.9005,11.906,66.07,93,52,3.33,GA,1662516292
enthavi,19.4908,-99.5758,52.77,88,75,0.0,MX,1662516293
san cristobal,7.7669,-72.225,65.39,96,100,3.02,VE,1662516153
along,28.1667,94.7667,75.87,78,88,1.25,IN,1662516293
itupiranga,-5.1347,-49.3267,80.92,62,21,3.13,BR,1662516294
ajdabiya,30.7554,20.2263,73.74,70,0,7.99,LY,1662516294
palana,59.1167,159.9667,52.47,45,13,2.19,RU,1662516294
jalu,29.0331,21.5482,73.96,57,0,9.24,LY,1662516295
victoria,22.2855,114.1577,83.86,80,98,11.01,HK,1662516011
georgiyevka,43.0369,74.7114,64.44,55,0,11.18,KZ,1662516295
trairi,-3.2778,-39.2689,78.82,77,7,14.03,BR,1662516007
kudahuvadhoo,2.6708,72.8944,81.63,75,99,16.08,MV,1662516296
vaitape,-16.5167,-151.75,78.51,74,6,16.58,PF,1662516296
san vicente,-26.6167,-54.1333,54.66,99,74,2.51,AR,1662516297
farmington,36.7281,-108.2187,86.68,21,0,12.66,US,1662516093
nakamura,32.9833,132.9333,78.04,83,100,2.51,JP,1662516297
champasak,14.75,106.0,74.25,99,100,1.16,LA,1662516298
cabedelo,-6.9811,-34.8339,72.27,83,15,16.69,BR,1662516298
floro,61.5996,5.0328,51.76,87,13,5.75,NO,1662516298
oranjemund,-28.55,16.4333,55.0,74,0,8.48,NA,1662516299
black diamond,47.3087,-122.0032,72.68,51,4,3.58,US,1662516299
novocheremshansk,54.3571,50.1666,42.22,92,74,5.19,RU,1662516299
korla,41.7597,86.1469,78.58,16,3,2.95,CN,1662516029
bilibino,68.0546,166.4372,47.44,52,88,6.8,RU,1662516180
oistins,13.0667,-59.5333,82.49,83,20,5.75,BB,1662516300
ostersund,63.1792,14.6357,41.45,100,100,7.0,SE,1662516301
whitehorse,60.7161,-135.0538,53.4,66,100,6.91,CA,1662516133
pehowa,29.9833,76.5833,80.56,69,0,2.77,IN,1662516301
thiruvananthapuram,8.4833,76.9167,78.78,83,40,4.61,IN,1662516009
wairoa,-39.0333,177.3667,59.56,48,76,1.99,NZ,1662516302
hermanus,-34.4187,19.2345,48.79,81,19,8.79,ZA,1662516302
broken hill,-31.95,141.4333,63.43,58,100,20.87,AU,1662516302
grindavik,63.8424,-22.4338,48.67,93,0,10.36,IS,1662516303
marsh harbour,26.5412,-77.0636,84.11,69,0,4.94,BS,1662516303
nanortalik,60.1432,-45.2371,43.92,95,100,1.34,GL,1662516029
bahia honda,22.9036,-83.1592,80.56,82,69,5.19,CU,1662516304
vardo,70.3705,31.1107,42.78,70,100,8.05,NO,1662516304
alofi,-19.0595,-169.9187,77.02,75,2,15.41,NU,1662516081
shimoda,34.6667,138.95,80.1,83,100,3.96,JP,1662516305
seoul,37.5683,126.9778,72.79,39,0,1.1,KR,1662516257
cayenne,4.9333,-52.3333,75.24,94,75,0.0,GF,1662516213
linden,6.0,-58.3,74.61,97,100,2.37,GY,1662516305
ikalamavony,-21.15,46.5833,54.82,85,7,5.46,MG,1662516306
quatre cocos,-20.2078,57.7625,68.09,74,87,12.24,MU,1662516306
camocim,-2.9022,-40.8411,78.04,80,8,15.3,BR,1662516307
santa isabel,-23.3156,-46.2214,61.9,96,100,3.62,BR,1662516307
karratha,-20.7377,116.8463,73.29,32,0,9.44,AU,1662516307
ammon,43.4696,-111.9666,82.38,29,0,4.61,US,1662516308
muravlenko,63.7898,74.523,42.22,85,76,2.64,RU,1662516308
orlik,52.5178,99.825,66.24,40,73,5.53,RU,1662516309
ilulissat,69.2167,-51.1,39.22,87,75,3.44,GL,1662516309
vallenar,-28.5708,-70.7581,61.47,65,0,3.62,CL,1662516309
katobu,-4.9408,122.5276,85.17,62,84,4.56,ID,1662516310
bojnurd,37.4747,57.329,66.61,58,0,3.15,IR,1662516310
garhakota,23.7667,79.15,78.67,83,100,2.01,IN,1662516310
izhma,65.0083,53.9113,41.49,97,100,9.28,RU,1662516311
pemangkat,1.1667,108.9667,81.64,78,100,2.01,ID,1662516311
hobyo,5.3505,48.5268,75.09,83,26,23.53,SO,1662516312
lima,-12.0432,-77.0282,59.9,84,100,12.66,PE,1662516231
telde,27.9924,-15.4192,71.53,73,40,20.71,ES,1662516312
vila,42.0304,-8.1588,51.69,91,100,4.41,PT,1662516313
dobrinka,52.1653,40.4731,38.44,77,27,7.18,RU,1662516313
kuybysheve,47.358,36.6491,47.44,60,65,5.17,UA,1662516313
vila velha,-20.3297,-40.2925,69.94,69,0,9.22,BR,1662516089
mamallapuram,12.6264,80.1722,80.65,77,100,6.89,IN,1662516314
fonte boa,-2.4959,-66.2662,73.04,97,99,1.5,BR,1662516314
new norfolk,-42.7826,147.0587,52.9,66,7,1.01,AU,1662516315
madawaska,47.3561,-68.3288,56.25,77,0,0.0,US,1662516315
schwabisch gmund,48.7995,9.7981,61.83,85,100,4.16,DE,1662516316
nizhniy kuranakh,58.8353,125.4869,46.69,92,100,2.57,RU,1662516316
vao,-22.6667,167.4833,67.77,66,41,12.15,NC,1662516152
narsaq,60.9167,-46.05,46.62,92,77,1.61,GL,1662516317
sonoita,31.85,-112.8333,87.4,57,0,13.62,MX,1662516317
puerto colombia,10.9878,-74.9547,78.89,79,100,9.06,CO,1662516317
matay,28.419,30.7792,76.55,67,0,8.99,EG,1662516318
hvide sande,56.0045,8.1294,58.08,76,92,21.77,DK,1662516318
bitkine,11.9801,18.2138,75.7,80,100,4.99,TD,1662516319
wanning,18.8003,110.3967,80.11,86,100,5.08,CN,1662516319
waw,7.7029,27.9953,70.72,92,100,3.36,SS,1662516087
egvekinot,66.3167,-179.1667,32.32,83,60,10.94,RU,1662516320
pachino,36.7186,15.0907,77.18,72,1,8.39,IT,1662516320
jaltenco,19.7506,-99.0956,60.26,77,100,6.22,MX,1662516321
faya,18.3851,42.4509,68.72,48,15,2.66,SA,1662516321
djambala,-2.5447,14.7533,72.75,72,29,3.42,CG,1662516321
khovu-aksy,51.1333,93.6,69.37,29,8,3.04,RU,1662516322
puerto carreno,6.189,-67.4859,76.01,90,81,3.67,CO,1662516322
horasan,40.0458,42.1728,55.65,72,99,4.23,TR,1662516322
farafangana,-22.8167,47.8333,63.23,92,9,5.44,MG,1662516323
dhidhdhoo,6.8833,73.1,79.54,81,99,17.56,MV,1662516323
lata,40.1629,-8.3327,60.93,96,98,2.13,PT,1662516060
mayumba,-3.432,10.6554,74.48,85,92,6.64,GA,1662516324
catalina,32.5056,-110.9211,91.06,22,0,1.01,US,1662516324
luba,3.4568,8.5547,76.55,91,100,6.26,GQ,1662516325
namibe,-15.1961,12.1522,63.61,89,92,4.72,AO,1662516325
khao yoi,13.2403,99.8243,79.38,84,96,3.09,TH,1662516325
kassala,15.451,36.4,77.83,68,32,9.6,SD,1662516326
skjervoy,70.0311,20.9714,42.8,71,100,2.86,NO,1662516326
turkan,40.3639,50.215,68.18,60,100,16.11,AZ,1662516326
paita,-5.0892,-81.1144,63.32,88,4,12.97,PE,1662516123
arlit,18.7369,7.3853,93.33,18,56,14.03,NE,1662516327
nabire,-3.3667,135.4833,84.56,68,97,4.32,ID,1662516327
opuwo,-18.0607,13.84,65.91,26,3,2.53,NA,1662516328
punta de bombon,-17.1717,-71.7931,59.97,79,57,5.66,PE,1662516328
marystown,47.1666,-55.1483,58.17,90,100,9.57,CA,1662516328
ashland,40.8167,-82.2665,63.61,93,85,6.29,US,1662516329
iwanai,42.9744,140.5089,74.5,53,0,11.79,JP,1662516329
baruun-urt,46.6806,113.2792,66.9,38,8,11.45,MN,1662516330
baykit,61.67,96.37,44.47,86,100,3.29,RU,1662516330
lorengau,-2.0226,147.2712,85.64,65,99,7.63,PG,1662516330
kibara,-2.15,33.45,71.64,69,54,8.32,TZ,1662516331
lamu,-2.2717,40.902,75.42,81,18,13.47,KE,1662516331
itoman,26.1247,127.6694,84.04,62,40,16.11,JP,1662516331
ayan,56.45,138.1667,52.63,96,100,41.27,RU,1662516332
ust-tsilma,65.441,52.1498,41.38,95,100,8.75,RU,1662516332
buchanan,5.8808,-10.0467,73.17,96,100,5.82,LR,1662516333
powell river,49.8496,-124.5361,68.32,54,28,2.91,CA,1662516165
coihaique,-45.5752,-72.0662,33.75,93,100,2.3,CL,1662516106
leningradskiy,69.3833,178.4167,42.24,66,100,5.5,RU,1662516334
aquidauana,-20.4711,-55.7872,74.44,48,5,2.71,BR,1662516334
koping,59.514,15.9926,47.05,93,23,4.61,SE,1662516335
atar,20.5169,-13.0499,94.41,20,8,13.6,MR,1662516192
guangshui,31.6199,113.9978,87.42,37,100,5.32,CN,1662516335
ruteng,-8.6136,120.4721,73.11,63,99,1.21,ID,1662516335
aguimes,27.9054,-15.4461,70.14,73,40,20.71,ES,1662516336
roblin,51.23,-101.3565,58.78,28,7,5.88,CA,1662516336
nome,64.5011,-165.4064,48.27,87,100,5.75,US,1662516337
senno,59.5336,33.9167,45.27,99,100,4.05,RU,1662516337
pathein,16.7833,94.7333,75.94,94,100,7.54,MM,1662516337
kynashiv,48.6705,28.9037,41.09,64,5,5.61,UA,1662516338
seymchan,62.8833,152.4333,61.41,38,5,11.52,RU,1662516338
manching,48.7166,11.4939,61.05,88,100,0.0,DE,1662516338
birao,10.2849,22.7882,70.81,97,100,2.39,CF,1662516339
inirida,3.8653,-67.9239,72.88,98,61,2.15,CO,1662516339
sao filipe,14.8961,-24.4956,79.34,85,100,9.48,CV,1662516340
borazjan,29.2666,51.2159,89.6,41,0,3.42,IR,1662516340
burhaniye,39.5004,26.9727,67.91,68,20,16.11,TR,1662516340
laguna,38.421,-121.4238,104.36,22,0,5.75,US,1662516341
kunyang,27.6658,120.5658,79.97,60,95,2.59,CN,1662516341
henties bay,-22.116,14.2845,56.7,76,0,5.48,NA,1662516341
lagoa,39.05,-27.9833,75.18,85,88,18.34,PT,1662516342
grand baie,-20.0182,57.5802,68.45,72,95,16.98,MU,1662516091
wageningen,51.9667,5.6667,61.68,94,100,4.61,NL,1662516342
ayolas,-27.4,-56.9,58.86,84,0,3.65,PY,1662516343
salta,-24.7859,-65.4117,56.57,37,0,4.0,AR,1662516343
lakes entrance,-37.8811,147.981,60.17,56,70,7.96,AU,1662516049
rafai,4.95,23.9167,68.16,99,72,1.79,CF,1662516344
arman,59.7,150.1667,59.02,53,100,4.38,RU,1662516344
road town,18.4167,-64.6167,84.29,79,97,9.46,VG,1662516318
adrar,20.5022,-10.0711,96.6,15,52,11.48,MR,1662516345
alta floresta,-9.8756,-56.0861,79.9,45,39,4.59,BR,1662516345
accra,5.556,-0.1969,74.44,90,100,8.1,GH,1662516345
port-gentil,-0.7193,8.7815,75.9,81,81,13.09,GA,1662516346
cartagena del chaira,1.3349,-74.8429,70.21,86,100,2.28,CO,1662516346
verkhnyaya balkariya,43.1279,43.4573,48.79,88,92,2.53,RU,1662516346
sakaiminato,35.55,133.2333,76.57,72,100,5.95,JP,1662516348
jibuti,11.5,42.5,83.44,51,25,7.05,DJ,1662516348
bonthe,7.5264,-12.505,74.8,93,100,4.41,SL,1662516348
gobabis,-22.45,18.9667,59.63,14,18,12.73,NA,1662516349
reconquista,-29.15,-59.65,57.31,51,0,8.16,AR,1662516349
samarai,-10.6167,150.6667,82.65,77,17,11.03,PG,1662516350
abnub,27.2696,31.1511,79.23,43,0,7.14,EG,1662516350
sao joao da barra,-21.6403,-41.0511,68.04,64,55,12.48,BR,1662516350
taltal,-25.4,-70.4833,56.66,78,30,2.19,CL,1662516245
iralaya,15.0,-83.2333,81.18,83,100,7.85,HN,1662516351
urucara,-2.5364,-57.76,78.76,59,22,3.31,BR,1662516174
talcahuano,-36.7167,-73.1167,49.68,100,100,17.27,CL,1662516209
valenca do piaui,-6.4075,-41.7456,78.06,40,0,8.7,BR,1662516351
uray,60.1247,64.7758,42.66,74,100,3.02,RU,1662516268
sartell,45.6216,-94.2069,71.11,87,0,0.0,US,1662516352
pundaguitan,6.3711,126.1689,82.51,68,100,2.53,PH,1662516352
marzuq,14.4,46.4667,80.67,56,66,3.78,YE,1662516353
ola,59.5833,151.2833,59.14,56,100,3.13,RU,1662516353
inhambane,-23.865,35.3833,69.8,83,99,14.47,MZ,1662516354
san jeronimo,-11.9472,-75.2829,50.7,69,8,2.37,PE,1662516354
talnakh,69.4865,88.3972,33.21,87,100,6.55,RU,1662516354
tucuma,-0.1833,-50.05,75.65,91,65,7.09,BR,1662516355
baiquan,47.5833,126.0833,63.81,39,24,17.94,CN,1662516355
didwana,27.4,74.5667,83.89,56,28,3.67,IN,1662516356
ugoofaaru,5.6667,73.0,79.99,78,88,17.49,MV,1662516356
phalombe,-15.8064,35.6507,62.02,79,0,2.95,MW,1662516357
kalmunai,7.4167,81.8167,79.61,75,100,4.63,LK,1662516357
labuhan,-6.8844,112.2051,84.45,67,85,8.12,ID,1662516357
tezu,27.9167,96.1667,81.0,71,76,1.97,IN,1662516358
banyo,6.75,11.8167,63.72,98,53,2.8,CM,1662516358
mount darwin,-16.7725,31.5838,55.17,78,0,4.5,ZW,1662516358
zhigansk,66.7697,123.3711,43.68,87,100,13.47,RU,1662516359
ingham,42.6,-84.3833,64.38,90,0,6.46,US,1662516359
miranda de ebro,42.6865,-2.947,52.84,73,48,2.44,ES,1662516360
gambela,8.25,34.5833,70.39,89,99,3.09,ET,1662516360
mandalgovi,45.7625,106.2708,70.5,21,2,9.37,MN,1662516360
cabra,37.4725,-4.4421,66.65,65,17,0.92,ES,1662516361
rawson,-43.3002,-65.1023,47.26,87,100,24.54,AR,1662516361
la rioja,42.25,-2.5,53.38,53,1,4.65,ES,1662516362
ixtapa,20.7,-105.2,87.03,66,75,3.44,MX,1662516362
safranbolu,41.2508,32.6942,55.51,82,79,3.78,TR,1662516362
beya,53.0533,90.9139,73.06,43,63,2.1,RU,1662516363
ponazyrevo,58.3578,46.3142,43.36,98,100,3.78,RU,1662516363
hambantota,6.1241,81.1185,77.34,100,20,5.75,LK,1662516364
constitucion,-35.3333,-72.4167,49.05,89,1,6.46,CL,1662516364
bongaigaon,26.4782,90.5568,77.79,92,100,7.16,IN,1662516364
awjilah,29.1081,21.2869,73.98,55,0,8.61,LY,1662516365
boyolangu,-8.1181,111.8935,81.5,73,65,8.41,ID,1662516365
dauphin,51.1494,-100.0502,63.07,27,31,7.2,CA,1662516366
san quintin,30.4833,-115.95,76.69,70,0,7.74,MX,1662516366
asau,46.4333,26.4,49.12,70,66,1.79,RO,1662516367
sinazongwe,-17.2614,27.4618,68.7,49,0,4.12,ZM,1662516367
plettenberg bay,-34.0527,23.3716,51.89,78,0,4.09,ZA,1662516367
bafq,31.6128,55.4107,73.24,15,0,0.2,IR,1662516368
rodrigues alves,-7.738,-72.6509,76.44,45,9,1.66,BR,1662516368
touros,-5.1989,-35.4608,73.54,83,3,15.28,BR,1662516368
gamba,-2.65,10.0,73.72,84,76,6.51,GA,1662516369
maniitsoq,65.4167,-52.9,39.33,88,96,11.12,GL,1662516369
viedma,-40.8135,-62.9967,66.43,22,100,15.93,AR,1662516370
bom jesus,-9.0744,-44.3586,74.17,39,19,2.95,BR,1662516370
ornskoldsvik,63.2909,18.7153,45.55,93,100,3.44,SE,1662516371
brae,60.3964,-1.353,58.05,79,100,22.37,GB,1662516071
okha,53.5739,142.9478,54.64,96,100,32.01,RU,1662516371
zhanaozen,43.3,52.8,60.21,42,100,8.5,KZ,1662516371
igarka,67.4667,86.5833,35.28,79,51,5.23,RU,1662516372
bowen,-20.0167,148.2333,72.93,67,10,16.31,AU,1662516372
lazaro cardenas,17.9583,-102.2,79.34,80,61,2.28,MX,1662516204
comodoro rivadavia,-45.8667,-67.5,39.06,87,100,14.97,AR,1662516309
sechura,-5.5569,-80.8222,63.77,82,0,12.03,PE,1662516373
lianzhou,24.7811,112.3825,86.67,54,47,1.95,CN,1662516373
chisec,15.8167,-90.2833,72.48,98,91,3.89,GT,1662516374
fort smith,35.3859,-94.3986,80.29,71,0,5.75,US,1662516375
kirakira,-10.4544,161.9205,84.31,73,17,11.9,SB,1662516375
horsham,51.064,-0.3272,60.69,93,20,4.61,GB,1662516376
xichang,27.8964,102.2634,68.9,58,76,2.46,CN,1662516376
valle de allende,26.9333,-105.4,61.41,95,100,3.74,MX,1662516376
erzin,36.9559,36.2,71.87,87,8,2.26,TR,1662516377
miri,4.4148,114.0089,83.26,66,100,3.27,MY,1662516377
cockburn town,21.4612,-71.1419,83.26,74,18,12.24,TC,1662516378
leninskoye,41.7589,69.3864,77.36,15,0,3.85,KZ,1662516378
dunn,44.95,-91.8835,67.48,87,0,3.44,US,1662516378
bonfim,3.0833,-59.95,78.3,74,25,1.23,BR,1662516379
voyinka,45.8699,33.9914,52.81,61,0,7.78,UA,1662516379
estancia,-11.2683,-37.4383,68.61,84,4,5.17,BR,1662516121
ambulu,-8.345,113.6058,83.21,69,94,5.35,ID,1662516380
vladyslavivka,45.1667,35.3667,57.45,56,3,10.56,UA,1662516380
caravelas,-17.7125,-39.2481,69.01,76,96,8.1,BR,1662516381
yangambi,0.8102,24.4336,69.76,96,56,1.39,CD,1662516381
gondanglegi,-7.7479,112.0132,86.29,59,55,10.2,ID,1662516382
yining,29.0361,114.5636,74.95,63,100,4.45,CN,1662516382
sattur,9.3667,77.9333,78.94,75,88,13.35,IN,1662516382
tarko-sale,64.9225,77.785,43.11,89,100,7.02,RU,1662516383
kiunga,-6.1219,141.2906,85.14,68,97,1.83,PG,1662516383
palmerston,-12.486,130.9833,88.32,52,20,4.61,AU,1662516383
muleba,-1.8397,31.6544,67.15,80,26,5.41,TZ,1662516384
fengzhen,40.4394,113.1536,66.16,27,0,2.33,CN,1662516384
ejido,8.5514,-71.2375,66.96,87,49,5.82,VE,1662516384
gogrial,8.5332,28.1004,71.17,95,100,3.29,SS,1662516385
puerto baquerizo moreno,-0.9,-89.6,68.41,90,100,14.45,EC,1662516385
barcelos,41.5388,-8.6151,64.27,95,95,3.15,PT,1662516386
capreol,46.706,-80.9225,54.55,63,0,1.88,CA,1662516386
vostok,46.4856,135.8833,48.13,83,100,19.95,RU,1662516386
mackenzie,55.2999,-123.1698,59.59,51,95,3.78,CA,1662516387
hit,33.6416,42.8251,86.7,26,0,10.11,IQ,1662516387
biloela,-24.4167,150.5,71.1,51,55,8.77,AU,1662516387
kosh-agach,50.0,88.6667,61.16,34,31,2.35,RU,1662516388
morgan city,29.6994,-91.2068,76.75,84,99,3.44,US,1662516388
orange walk,17.8333,-88.8333,76.46,94,17,3.6,BZ,1662516389
jaque,7.5175,-78.1703,78.35,88,100,2.24,PA,1662516389
teknaf,20.8624,92.3058,84.13,78,10,3.62,BD,1662516389
cururupu,-1.8283,-44.8683,75.06,95,15,5.17,BR,1662516390
naze,28.3667,129.4833,78.26,65,63,12.75,JP,1662516390
rocha,-34.4833,-54.3333,51.71,98,19,3.96,UY,1662516391
beyneu,45.3167,55.2,58.55,55,99,6.31,KZ,1662516391
atambua,-9.1061,124.8925,84.47,52,53,2.73,ID,1662516392
mozarlandia,-14.7447,-50.5706,84.52,22,65,12.73,BR,1662516392
kutum,14.2,24.6667,73.42,68,79,2.82,SD,1662516109
santa rosa,14.3122,121.1114,87.21,77,35,3.15,PH,1662516137
chapais,49.7834,-74.8492,57.27,66,8,3.56,CA,1662516393
kursk,51.7303,36.1939,44.8,87,31,2.24,RU,1662516393
bambanglipuro,-7.95,110.2833,82.53,71,55,9.55,ID,1662516393
boden,65.8252,21.6886,44.6,80,100,4.56,SE,1662516394
pringsewu,-5.3582,104.9744,81.93,75,33,1.05,ID,1662516394
mugla,37.2303,28.3557,61.29,57,0,5.55,TR,1662516394
bud,39.447,-86.1758,68.29,89,40,6.31,US,1662516395
odweyne,9.4092,45.064,72.99,52,83,16.87,SO,1662516395
russell,32.3502,-85.1999,76.62,94,0,0.0,US,1662516396
lilongwe,-13.9669,33.7873,63.45,46,0,4.63,MW,1662516396
mehamn,71.0357,27.8492,40.95,93,100,3.44,NO,1662516396
souillac,-20.5167,57.5167,67.57,80,67,9.95,MU,1662516397
karaman,37.0833,33.25,52.75,66,0,9.55,TR,1662516397
